[
   {
        "name": "Brunswick East",
        "lat": 51.5491713,
        "lon": -0.0789717,
        "address": "Stamford Works, Gillett St, London N16 8JH",
        "openHours": "Monday to Friday, 08:00 to 17:00; Saturday and Sunday, 09:00 to 17:00",
        "type": "coffee shop, homemade, open kitchen",
        "power": { "available": true },
        "wifi": { "available": true }
    },
   {
        "name": "South Library",
        "lat": 51.5390506,
        "lon": -0.1008359,
        "address": "117 Essex Rd, London N1 2SL",
        "openHours": "Monday and Wednesday, 09:30 to 20:00; Friday and Saturday, 09:30 to 17:00",
        "type": "library, quiet",
        "power": { "available": true },
        "wifi": { "available": true }
    },
    {
        "name": "Mildmay Library",
        "lat": 51.5476059,
        "lon": -0.0865848,
        "address": "21-23 Mildmay Park, London N1 4NA",
        "openHours": "Monday, 09:30 to 13:00; Tuesday and Thursday, 09:30 to 20:00; Saturday, 11:00 to 17:00",
        "type": "library, quiet",
        "power": { "available": true },
        "wifi": { "available": true }
    },
    {
        "name": "Kobo",
        "lat": 51.5350033,
        "lon": -0.1063137,
        "address": "346 Upper St, London N1 0PD",
        "openHours": "Monday to Friday, 07:00 to 19:00; Saturday and Sunday, 09:30 to 17:30",
        "type": "coffee, bakery, quiet",
        "power": { "available": true },
        "wifi": { "available": true }
    },
    {
        "name": "Dandy",
        "lat": 51.551252,
        "lon": -0.0864523,
        "address": "20 Newington Green, London N16 9PU",
        "openHours": "Monday to Wednesday, 08:00 to 17:00; Thursday to Sunday, 08:00 to 23:00",
        "type": "coffee, bakery, restaurant",
        "power": { "available": true },
        "wifi": { "available": true }
    },
    {
        "name": "Mildmay Community Centre",
        "lat": 51.5508424,
        "lon": -0.0846127,
        "address": "Woodville Rd, London N16 8NA",
        "openHours": "Monday to Saturday, 09:30 to 21:00",
        "type": "community centre, garden, hub",
        "power": { "available": true },
        "wifi": { "available": true }
    },
    {
        "name": "Dalston Eastern Curve Garden",
        "lat": 51.5464792,
        "lon": -0.0763661,
        "address": "13 Dalston Ln, London E8 3DF",
        "openHours": "Everyday from 11:00 to 19:00, 22:00 or 23:00",
        "type": "coffee, garden, popup pizza, community",
        "power": { "available": false },
        "wifi": { "available": false }
    },
    {
        "name": "Barbican Centre",
        "lat": 51.5200801,
        "lon": -0.0954517,
        "address": "Silk St, London EC2Y 8DS",
        "openHours": "Monday to Saturday, 09:00 to 23:00; Sunday, 11:00 to 23:00",
        "type": "coffee, arts space, theatre, cinema, bar, restaurant",
        "power": { "available": true },
        "wifi": { "available": true }
    },
    {
        "name": "Timberyard",
        "lat": 51.524126,
        "lon": -0.09638199999994868,
        "address": "61-67 Old Street, London EC1V 9HW",
        "openHours": "Monday to Friday, 08:00 to 20:00; Saturday to Sunday, 10:00 to 18:00",
        "type": "coffee",
        "power": { "available": true },
        "wifi": { "available": true }
    },
    {
        "name": "Foxcroft and Ginger",
        "lat": 51.513019,
        "lon": -0.13431400000001759,
        "address": "3 Berwick Street, Soho, London W1F 0DR",
        "openHours": "Monday, 08:00 to 19:00; Tuesday to Friday, 08:00 to 22:00; Saturday to Sunday, 09:00 to 22:00",
        "type": "coffee",
        "power": { "available": true },
        "wifi": { "available": true }
    },
    {
        "name": "Look mum no hands!",
        "lat": 51.523928,
        "lon": -0.09700900000007096,
        "address": "49 Old Street, London EC1V 9HX",
        "openHours": "Monday to Friday, 07:30 to 22:00; Saturday, 09:00 to 22:00; Sunday: 09:30 to 22:00",
        "type": "coffee",
        "power": { "available": true },
        "wifi": { "available": true, "comments": "The wi-fi is flaky." }
    },
    {
        "name": "Ace Hotel Shoreditch",
        "lat": 51.525744,
        "lon": -0.07723599999997077,
        "address": "100 Shoreditch High Street, London E1 6JQ",
        "type": "hotel/coffee",
        "power": { "available": true },
        "wifi": { "available": true }
    },
    {
        "name": "Hotel Chocolat",
        "lat": 51.514859,
        "lon": -0.12687800000003335,
        "address": "4 Monmouth Street, London WC2H 9HB",
        "type": "coffee",
        "power": { "available": true },
        "wifi": { "available": false }
    },
    {
        "name": "Taylor St Baristas",
        "lat": 51.51447,
        "lon": -0.08605199999999513,
        "address": "125 Old Broad Street, London EC2N 1AR",
        "openHours": "Monday to Friday, 07:00 to 18:00",
        "type": "coffee",
        "power": { "available": true },
        "wifi": { "available": true }
    },
    {
        "name": "Starbucks",
        "lat": 51.518916,
        "lon": -0.07838400000002821,
        "address": "8-10 Brushfield Street, London E1 6AN",
        "openHours": "Monday to Friday, 06:00 to 19:30; Saturday to Sunday, 08:00 to 19:30",
        "type": "coffee",
        "power": { "available": true },
        "wifi": { "available": true, "comments": "The wi-fi is flaky." }
    },
    {
        "name": "Prufrock Coffee",
        "lat": 51.519933,
        "lon": -0.10949400000004061,
        "address": "23-25 Leather Lane, London EC1N 7TE",
        "type": "coffee",
        "power": { "available": false },
        "wifi": { "available": true }
    },
    {
        "name": "With Jam & Bread",
        "lat": 51.456909,
        "lon": 0.009070999999948981,
        "address": "386 Lee High Road, London SE12 8RW",
        "openHours": "Monday to Friday, 08:00 to 16:00; Saturday, 09:30 to 15:30",
        "type": "coffee",
        "power": { "available": false },
        "wifi": { "available": true }
    },
    {
        "name": "Fix Coffee",
        "lat": 51.523372,
        "lon": -0.09330499999998665,
        "address": "161 Whitecross Street, London EC1Y 8JL",
        "openHours": "Monday to Friday, 07:00 to 19:00; Saturday, 08:00 to 19:00; Sunday: 09:00 to 19:00",
        "type": "coffee",
        "power": { "available": true, "comments": "There's only one power socket." },
        "wifi": { "available": true }
    },
    {
        "name": "The Oyster Shed",
        "lat": 51.509033,
        "lon": -0.08976800000004914,
        "address": "5 Angel Lane, London EC4R 3AB",
        "openHours": "Monday to Saturday, 12:00 to 22:00; Sunday, 12:30 to 21:00",
        "type": "bar",
        "power": { "available": true },
        "wifi": { "available": true }
    },
    {
        "name": "Marks and Spencer Caf√©",
        "lat": 51.50124709772832,
        "lon": -0.1921561360359192,
        "address": "113 Kensington High Street, London W8 5SQ",
        "type": "coffee",
        "power": { "available": false },
        "wifi": { "available": true }
    },
    {
        "name": "Foyles Cafe",
        "lat": 51.514891,
        "lon": -0.1297620000000279,
        "address": "113-119 Charing Cross Road, London WC2H 0EB",
        "openHours": "Monday to Saturday, 07:00 to 20:30; Sunday, 10:00 to 17:30",
        "type": "coffee",
        "power": { "available": true, "comments": "One power socket in the south-east corner." },
        "wifi": { "available": true }
    },
    {
        "name": "Association Coffee",
        "lat": 51.5136,
        "lon": -0.07911000000001422,
        "address": "10-12 Creechurch Lane, London EC3A 5AY",
        "openHours": "Monday to Friday, 07:30 to 17:00",
        "type": "coffee",
        "power": { "available": false },
        "wifi": { "available": true }
    },
    {
        "name": "Timberyard",
        "lat": 51.512839,
        "lon": -0.1272430000000213,
        "address": "7 Upper St Martin's Lane, London WC2H",
        "openHours": "Monday to Friday, 08:00 to 20:00; Saturday, 10:00 to 20:00; Sunday, 10:00 to 18:00",
        "type": "coffee",
        "power": { "available": true },
        "wifi": { "available": true }
    },
    {
        "name": "Ozone Coffee Roasters",
        "lat": 51.524696,
        "lon": -0.08685700000000907,
        "address": "11 Leonard Street, London EC2A 4AQ",
        "openHours": "Monday to Friday, 07:30 to 17:00; Saturday to Sunday, 09:00 to 16:00",
        "type": "coffee",
        "power": { "available": true },
        "wifi": { "available": true }
    },
    {
        "name": "Salvation Jane",
        "lat": 51.52431,
        "lon": -0.08737300000007053,
        "address": "1 Oliver's Yard, 55 City Road, London EC1Y 1HQ",
        "openHours": "Monday, 08:00 to 16:00; Tuesday to Friday, 08:00 to 22:00; Saturday to Sunday, 09:00 to 16:00",
        "type": "coffee",
        "power": { "available": false },
        "wifi": { "available": true }
    },
    {
        "name": "Talkhouse Coffee",
        "lat": 51.517815,
        "lon": -0.206698,
        "address": "275 Portobello Rd, London W11 1LR",
        "openHours": "Monday, closed; Tuesday to Friday, 08:00 to 17:00; Saturday, 09.30 to 19:00; Sunday, 09:30 to 17:00",
        "type": "coffee",
        "power": { "available": true },
        "wifi": { "available": true }
    }
]
