[
    {
        "name": "Café x Café",
        "lat": 43.2926049,
        "lon": 5.3847225,
        "openHours": "Monday to Friday, 08h00 - 16h00; Saturday to Sunday, 09h00 - 13h00",
        "address":  "2B Rue Fontange, 13006 Marseille",
        "type" : "coffeeshop",
        "power": {"available": false},
        "wifi": {"available": false, "comment": "à vérifier, je n'ai pas demandé"}
    },
    {
        "name": "Histoire de l'œil",
        "lat": 43.2921037,
        "lon": 5.3830756,
        "openHours": "Tuesday to Saturday, 10h00 - 19h00",
        "address":  "25 Rue Fontange, 13006 Marseille 06",
        "comment": "y'a des tables en intérieur _et_ en extérieur, à l'ombre d'un arbre",
        "type" : "bookshop",
        "url": "http://histoiredeloeil.com",
        "power": {"available": true},
        "wifi": {"available": true}
    },
    {
        "name": "Le Môle",
        "lat": 43.29531,
        "lon": 5.36180,
        "openHours": "Monday 12h00 - 19h00, Wednesday to Saturday, 12h00 - 19h00",
        "address":  "01 esplanade du J4 - Mucem",
        "type" : "coffee/restaurant",
        "url": "http://www.passedat.fr/#!le-mole/",
        "power": {"available": true},
        "wifi": {"available": false}
    },
    {
        "name": "Grand Escalier",
        "lat": 43.301308,
        "lon": 5.3805723,
        "openHours": "Monday to Sunday - 6:30am to 10:00pm",
        "address":  "39, Boulevard Athènes - 13001 Marseille",
        "type" : "coffee/restaurant",
        "url": "https://www.facebook.com/pages/Brasserie-Le-Grand-Escalier-Marseille/409279962446559",
        "power": {"available": true},
        "wifi": {"available": true}
    }
]
